     2.11           OBSERVATION DATA    G                   RINEX VERSION / TYPE
Spider V4,3,0,4633  DGT                 2016 07 18 14:10    PGM / RUN BY / DATE 
IGP0                                                        MARKER NAME         
IGP0                                                        MARKER NUMBER       
Carla Martins       DIRECAO-GERAL DO TERRITORIO             OBSERVER / AGENCY   
40101683            TPS NETG3                               REC # / TYPE / VERS 
07340159            LEIAX1202GG     NONE                    ANT # / TYPE        
  4919032.1862  -793055.3627  3968746.4404                  APPROX POSITION XYZ 
        0.0000        0.0000        0.0000                  ANTENNA: DELTA H/E/N
     1     1                                                WAVELENGTH FACT L1/2
     1    C1                                                # / TYPES OF OBSERV 
     1.000                                                  INTERVAL            
  2016    07    18    14    10    0.0000000     GPS         TIME OF FIRST OBS   
  2016    07    18    14    10   59.0000000     GPS         TIME OF LAST OBS    
    17                                                      LEAP SECONDS        
    10                                                      # OF SATELLITES     
   G 7    60                                                PRN / # OF OBS      
   G 8    60                                                PRN / # OF OBS      
   G10    60                                                PRN / # OF OBS      
   G16    60                                                PRN / # OF OBS      
   G18    60                                                PRN / # OF OBS      
   G20    60                                                PRN / # OF OBS      
   G21    60                                                PRN / # OF OBS      
   G26    60                                                PRN / # OF OBS      
   G27    60                                                PRN / # OF OBS      
   G31    60                                                PRN / # OF OBS      
THIS RINEX FILE IS CREATED FROM RTCM V3.0 DATA              COMMENT             
                                                            END OF HEADER       
 16 07 18 14 10  0.0000000  0 10G07G08G10G16G18G20G21G26G27G31
  24964165.234  
  23342549.666  
  23046397.788  
  20342854.786  
  22732867.750  
  24536104.318  
  22923491.828  
  20633255.424  
  20991837.880  
  24702607.936  
 16 07 18 14 10  1.0000000  0 10G07G08G10G16G18G20G21G26G27G31
  24963660.054  
  23342089.766  
  23045870.828  
  20342728.986  
  22732740.390  
  24536498.538  
  22923954.808  
  20633486.884  
  20991610.040  
  24703270.816  
 16 07 18 14 10  2.0000000  0 10G07G08G10G16G18G20G21G26G27G31
  24963156.014  
  23341630.266  
  23045344.168  
  20342603.246  
  22732613.190  
  24536893.078  
  22924417.488  
  20633718.504  
  20991382.400  
  24703933.816  
 16 07 18 14 10  3.0000000  0 10G07G08G10G16G18G20G21G26G27G31
  24962650.514  
  23341170.766  
  23044817.368  
  20342477.746  
  22732486.010  
  24537287.358  
  22924880.308  
  20633950.164  
  20991154.980  
  24704596.416  
 16 07 18 14 10  4.0000000  0 10G07G08G10G16G18G20G21G26G27G31
  24962145.994  
  23340711.046  
  23044290.568  
  20342352.086  
  22732358.550  
  24537682.878  
  22925343.368  
  20634182.044  
  20990927.540  
  24705258.696  
 16 07 18 14 10  5.0000000  0 10G07G08G10G16G18G20G21G26G27G31
  24961642.134  
  23340251.026  
  23043763.268  
  20342226.766  
  22732231.650  
  24538076.758  
  22925806.368  
  20634414.024  
  20990700.000  
  24705921.516  
 16 07 18 14 10  6.0000000  0 10G07G08G10G16G18G20G21G26G27G31
  24961138.214  
  23339791.926  
  23043236.748  
  20342101.586  
  22732105.450  
  24538472.298  
  22926269.428  
  20634646.044  
  20990472.520  
  24706584.776  
 16 07 18 14 10  7.0000000  0 10G07G08G10G16G18G20G21G26G27G31
  24960633.994  
  23339331.966  
  23042710.308  
  20341976.546  
  22731978.550  
  24538867.338  
  22926732.528  
  20634878.304  
  20990245.180  
  24707247.356  
 16 07 18 14 10  8.0000000  0 10G07G08G10G16G18G20G21G26G27G31
  24960130.194  
  23338872.686  
  23042183.588  
  20341851.866  
  22731851.790  
  24539261.698  
  22927195.728  
  20635110.444  
  20990018.120  
  24707910.836  
 16 07 18 14 10  9.0000000  0 10G07G08G10G16G18G20G21G26G27G31
  24959625.914  
  23338413.366  
  23041657.048  
  20341726.766  
  22731724.970  
  24539656.098  
  22927658.848  
  20635342.844  
  20989790.860  
  24708573.316  
 16 07 18 14 10 10.0000000  0 10G07G08G10G16G18G20G21G26G27G31
  24959121.434  
  23337953.906  
  23041130.808  
  20341601.886  
  22731598.730  
  24540052.658  
  22928122.008  
  20635575.304  
  20989563.860  
  24709236.216  
 16 07 18 14 10 11.0000000  0 10G07G08G10G16G18G20G21G26G27G31
  24958617.794  
  23337494.086  
  23040604.388  
  20341477.166  
  22731472.290  
  24540447.578  
  22928585.188  
  20635807.984  
  20989337.000  
  24709899.136  
 16 07 18 14 10 12.0000000  0 10G07G08G10G16G18G20G21G26G27G31
  24958114.294  
  23337034.586  
  23040078.108  
  20341352.706  
  22731346.030  
  24540843.978  
  22929048.588  
  20636040.604  
  20989109.760  
  24710561.756  
 16 07 18 14 10 13.0000000  0 10G07G08G10G16G18G20G21G26G27G31
  24957610.394  
  23336575.326  
  23039551.428  
  20341228.226  
  22731219.950  
  24541239.358  
  22929511.808  
  20636273.424  
  20988882.780  
  24711224.756  
 16 07 18 14 10 14.0000000  0 10G07G08G10G16G18G20G21G26G27G31
  24957107.074  
  23336115.766  
  23039025.028  
  20341103.586  
  22731094.470  
  24541635.418  
  22929974.968  
  20636505.964  
  20988655.700  
  24711887.976  
 16 07 18 14 10 15.0000000  0 10G07G08G10G16G18G20G21G26G27G31
  24956603.114  
  23335656.346  
  23038498.708  
  20340979.226  
  22730968.250  
  24542031.338  
  22930438.708  
  20636739.104  
  20988428.580  
  24712550.476  
 16 07 18 14 10 16.0000000  0 10G07G08G10G16G18G20G21G26G27G31
  24956099.454  
  23335197.166  
  23037972.548  
  20340855.046  
  22730842.050  
  24542426.878  
  22930901.908  
  20636972.004  
  20988201.860  
  24713213.536  
 16 07 18 14 10 17.0000000  0 10G07G08G10G16G18G20G21G26G27G31
  24955595.514  
  23334737.666  
  23037446.748  
  20340730.786  
  22730716.150  
  24542823.378  
  22931365.468  
  20637205.104  
  20987975.180  
  24713876.356  
 16 07 18 14 10 18.0000000  0 10G07G08G10G16G18G20G21G26G27G31
  24955092.494  
  23334278.206  
  23036920.048  
  20340606.686  
  22730590.670  
  24543218.278  
  22931828.948  
  20637438.364  
  20987748.200  
  24714539.036  
 16 07 18 14 10 19.0000000  0 10G07G08G10G16G18G20G21G26G27G31
  24954588.994  
  23333818.786  
  23036394.228  
  20340482.646  
  22730465.410  
  24543614.198  
  22932292.528  
  20637671.744  
  20987521.560  
  24715202.216  
 16 07 18 14 10 20.0000000  0 10G07G08G10G16G18G20G21G26G27G31
  24954085.794  
  23333359.286  
  23035868.028  
  20340358.846  
  22730339.370  
  24544010.498  
  22932755.928  
  20637905.484  
  20987294.980  
  24715864.376  
 16 07 18 14 10 21.0000000  0 10G07G08G10G16G18G20G21G26G27G31
  24953583.434  
  23332899.646  
  23035342.108  
  20340235.046  
  22730213.910  
  24544406.938  
  22933219.408  
  20638139.004  
  20987068.520  
  24716526.296  
 16 07 18 14 10 22.0000000  0 10G07G08G10G16G18G20G21G26G27G31
  24953080.014  
  23332440.226  
  23034816.228  
  20340111.086  
  22730088.870  
  24544803.758  
  22933683.148  
  20638372.784  
  20986841.720  
  24717189.116  
 16 07 18 14 10 23.0000000  0 10G07G08G10G16G18G20G21G26G27G31
  24952577.114  
  23331980.686  
  23034290.368  
  20339987.326  
  22729963.370  
  24545200.238  
  22934146.968  
  20638606.664  
  20986615.200  
  24717851.556  
 16 07 18 14 10 24.0000000  0 10G07G08G10G16G18G20G21G26G27G31
  24952074.194  
  23331521.126  
  23033764.828  
  20339864.006  
  22729837.930  
  24545596.998  
  22934610.968  
  20638840.564  
  20986388.900  
  24718514.156  
 16 07 18 14 10 25.0000000  0 10G07G08G10G16G18G20G21G26G27G31
  24951571.254  
  23331062.646  
  23033239.328  
  20339740.486  
  22729712.990  
  24545994.398  
  22935074.828  
  20639074.424  
  20986162.300  
  24719176.476  
 16 07 18 14 10 26.0000000  0 10G07G08G10G16G18G20G21G26G27G31
  24951068.294  
  23330603.406  
  23032713.888  
  20339616.986  
  22729588.090  
  24546391.618  
  22935538.348  
  20639308.384  
  20985936.320  
  24719838.636  
 16 07 18 14 10 27.0000000  0 10G07G08G10G16G18G20G21G26G27G31
  24950565.654  
  23330144.366  
  23032188.508  
  20339493.586  
  22729463.330  
  24546788.238  
  22936002.048  
  20639542.704  
  20985709.600  
  24720502.036  
 16 07 18 14 10 28.0000000  0 10G07G08G10G16G18G20G21G26G27G31
  24950063.614  
  23329685.166  
  23031662.648  
  20339370.466  
  22729338.730  
  24547184.938  
  22936465.888  
  20639776.724  
  20985483.260  
  24721164.216  
 16 07 18 14 10 29.0000000  0 10G07G08G10G16G18G20G21G26G27G31
  24949561.334  
  23329225.846  
  23031137.148  
  20339247.246  
  22729213.630  
  24547581.498  
  22936929.828  
  20640011.204  
  20985257.102  
  24721826.816  
 16 07 18 14 10 30.0000000  0 10G07G08G10G16G18G20G21G26G27G31
  24949059.294  
  23328767.126  
  23030611.728  
  20339124.086  
  22729089.110  
  24547979.278  
  22937393.648  
  20640245.544  
  20985030.882  
  24722490.036  
 16 07 18 14 10 31.0000000  0 10G07G08G10G16G18G20G21G26G27G31
  24948556.274  
  23328308.126  
  23030086.228  
  20339001.146  
  22728964.730  
  24548376.438  
  22937857.568  
  20640480.044  
  20984804.802  
  24723152.176  
 16 07 18 14 10 32.0000000  0 10G07G08G10G16G18G20G21G26G27G31
  24948054.074  
  23327849.226  
  23029560.848  
  20338878.486  
  22728840.510  
  24548773.198  
  22938321.448  
  20640714.704  
  20984578.662  
  24723814.376  
 16 07 18 14 10 33.0000000  0 10G07G08G10G16G18G20G21G26G27G31
  24947552.254  
  23327390.126  
  23029035.668  
  20338755.726  
  22728715.930  
  24549170.578  
  22938785.848  
  20640949.524  
  20984352.402  
  24724477.616  
 16 07 18 14 10 34.0000000  0 10G07G08G10G16G18G20G21G26G27G31
  24947049.714  
  23326930.846  
  23028510.288  
  20338633.186  
  22728591.570  
  24549567.998  
  22939249.848  
  20641184.344  
  20984126.542  
  24725140.216  
 16 07 18 14 10 35.0000000  0 10G07G08G10G16G18G20G21G26G27G31
  24946547.254  
  23326471.986  
  23027985.308  
  20338510.646  
  22728467.510  
  24549965.598  
  22939714.008  
  20641419.324  
  20983900.582  
  24725802.716  
 16 07 18 14 10 36.0000000  0 10G07G08G10G16G18G20G21G26G27G31
  24946045.394  
  23326013.186  
  23027459.888  
  20338388.126  
  22728343.550  
  24550363.718  
  22940178.368  
  20641654.204  
  20983674.622  
  24726465.136  
 16 07 18 14 10 37.0000000  0 10G07G08G10G16G18G20G21G26G27G31
  24945543.794  
  23325554.506  
  23026934.988  
  20338265.786  
  22728219.730  
  24550761.518  
  22940642.088  
  20641889.284  
  20983448.722  
  24727127.876  
 16 07 18 14 10 38.0000000  0 10G07G08G10G16G18G20G21G26G27G31
  24945042.034  
  23325095.626  
  23026409.788  
  20338143.606  
  22728095.470  
  24551159.278  
  22941106.328  
  20642124.424  
  20983222.982  
  24727790.216  
 16 07 18 14 10 39.0000000  0 10G07G08G10G16G18G20G21G26G27G31
  24944540.214  
  23324635.986  
  23025885.208  
  20338021.666  
  22727971.750  
  24551556.578  
  22941570.828  
  20642360.044  
  20982997.242  
  24728452.196  
 16 07 18 14 10 40.0000000  0 10G07G08G10G16G18G20G21G26G27G31
  24944038.034  
  23324177.266  
  23025360.348  
  20337899.306  
  22727848.130  
  24551955.758  
  22942034.888  
  20642595.444  
  20982771.502  
  24729114.756  
 16 07 18 14 10 41.0000000  0 10G07G08G10G16G18G20G21G26G27G31
  24943537.694  
  23323718.586  
  23024835.048  
  20337777.246  
  22727724.670  
  24552353.878  
  22942499.448  
  20642830.924  
  20982545.922  
  24729777.096  
 16 07 18 14 10 42.0000000  0 10G07G08G10G16G18G20G21G26G27G31
  24943035.354  
  23323259.926  
  23024310.268  
  20337655.326  
  22727600.790  
  24552752.198  
  22942964.208  
  20643066.264  
  20982320.322  
  24730439.256  
 16 07 18 14 10 43.0000000  0 10G07G08G10G16G18G20G21G26G27G31
  24942534.454  
  23322800.486  
  23023785.668  
  20337533.566  
  22727477.310  
  24553151.018  
  22943428.448  
  20643302.124  
  20982094.922  
  24731101.396  
 16 07 18 14 10 44.0000000  0 10G07G08G10G16G18G20G21G26G27G31
  24942032.654  
  23322341.666  
  23023261.128  
  20337412.086  
  22727353.790  
  24553549.538  
  22943893.128  
  20643537.744  
  20981869.202  
  24731763.436  
 16 07 18 14 10 45.0000000  0 10G07G08G10G16G18G20G21G26G27G31
  24941532.054  
  23321883.226  
  23022736.448  
  20337290.366  
  22727231.350  
  24553947.538  
  22944357.668  
  20643773.724  
  20981643.722  
  24732426.156  
 16 07 18 14 10 46.0000000  0 10G07G08G10G16G18G20G21G26G27G31
  24941030.714  
  23321423.726  
  23022212.008  
  20337168.966  
  22727108.190  
  24554346.758  
  22944822.628  
  20644010.104  
  20981418.322  
  24733088.036  
 16 07 18 14 10 47.0000000  0 10G07G08G10G16G18G20G21G26G27G31
  24940528.594  
  23320965.066  
  23021687.488  
  20337047.546  
  22726984.970  
  24554746.698  
  22945287.288  
  20644246.204  
  20981192.922  
  24733751.376  
 16 07 18 14 10 48.0000000  0 10G07G08G10G16G18G20G21G26G27G31
  24940028.514  
  23320505.846  
  23021163.028  
  20336926.306  
  22726861.810  
  24555145.058  
  22945751.788  
  20644482.364  
  20980967.662  
  24734413.736  
 16 07 18 14 10 49.0000000  0 10G07G08G10G16G18G20G21G26G27G31
  24939527.834  
  23320046.866  
  23020638.668  
  20336805.006  
  22726739.390  
  24555543.218  
  22946216.748  
  20644718.624  
  20980742.162  
  24735075.856  
 16 07 18 14 10 50.0000000  0 10G07G08G10G16G18G20G21G26G27G31
  24939025.994  
  23319588.386  
  23020114.168  
  20336683.826  
  22726616.830  
  24555942.238  
  22946681.448  
  20644955.084  
  20980516.762  
  24735738.536  
 16 07 18 14 10 51.0000000  0 10G07G08G10G16G18G20G21G26G27G31
  24938525.094  
  23319129.806  
  23019589.888  
  20336562.846  
  22726494.290  
  24556341.818  
  22947145.948  
  20645191.604  
  20980291.682  
  24736401.356  
 16 07 18 14 10 52.0000000  0 10G07G08G10G16G18G20G21G26G27G31
  24938024.794  
  23318671.006  
  23019065.768  
  20336441.806  
  22726371.670  
  24556740.998  
  22947610.648  
  20645428.384  
  20980066.542  
  24737064.236  
 16 07 18 14 10 53.0000000  0 10G07G08G10G16G18G20G21G26G27G31
  24937524.494  
  23318212.006  
  23018541.628  
  20336321.066  
  22726249.390  
  24557140.218  
  22948075.668  
  20645665.024  
  20979841.562  
  24737726.456  
 16 07 18 14 10 54.0000000  0 10G07G08G10G16G18G20G21G26G27G31
  24937024.074  
  23317753.706  
  23018017.228  
  20336200.066  
  22726126.750  
  24557540.198  
  22948540.748  
  20645902.024  
  20979616.422  
  24738388.276  
 16 07 18 14 10 55.0000000  0 10G07G08G10G16G18G20G21G26G27G31
  24936523.234  
  23317295.266  
  23017493.028  
  20336079.526  
  22726004.450  
  24557939.498  
  22949005.848  
  20646139.144  
  20979391.382  
  24739050.576  
 16 07 18 14 10 56.0000000  0 10G07G08G10G16G18G20G21G26G27G31
  24936023.474  
  23316836.846  
  23016969.068  
  20335958.966  
  22725882.390  
  24558338.238  
  22949470.888  
  20646376.124  
  20979166.502  
  24739712.436  
 16 07 18 14 10 57.0000000  0 10G07G08G10G16G18G20G21G26G27G31
  24935522.954  
  23316378.386  
  23016444.788  
  20335838.546  
  22725760.130  
  24558738.358  
  22949935.628  
  20646613.184  
  20978941.502  
  24740374.396  
 16 07 18 14 10 58.0000000  0 10G07G08G10G16G18G20G21G26G27G31
  24935022.294  
  23315919.886  
  23015920.928  
  20335717.866  
  22725638.750  
  24559138.538  
  22950400.728  
  20646850.204  
  20978716.382  
  24741036.996  
 16 07 18 14 10 59.0000000  0 10G07G08G10G16G18G20G21G26G27G31
  24934521.914  
  23315461.086  
  23015397.088  
  20335597.486  
  22725516.750  
  24559537.798  
  22950865.928  
  20647087.684  
  20978491.582  
  24741699.056  
