     2.11           OBSERVATION DATA    G                   RINEX VERSION / TYPE
Spider V4,3,0,4633  DGT                 2016 07 18 10:08    PGM / RUN BY / DATE 
IGP0                                                        MARKER NAME         
IGP0                                                        MARKER NUMBER       
Carla Martins       DIRECAO-GERAL DO TERRITORIO             OBSERVER / AGENCY   
40101683            TPS NETG3                               REC # / TYPE / VERS 
07340159            LEIAX1202GG     NONE                    ANT # / TYPE        
  4919032.1862  -793055.3627  3968746.4404                  APPROX POSITION XYZ 
        0.0000        0.0000        0.0000                  ANTENNA: DELTA H/E/N
     1     1                                                WAVELENGTH FACT L1/2
     1    C1                                                # / TYPES OF OBSERV 
     1.000                                                  INTERVAL            
  2016    07    18    10    08    0.0000000     GPS         TIME OF FIRST OBS   
  2016    07    18    10    08   59.0000000     GPS         TIME OF LAST OBS    
    17                                                      LEAP SECONDS        
     9                                                      # OF SATELLITES     
   G 2    60                                                PRN / # OF OBS      
   G12    60                                                PRN / # OF OBS      
   G14    60                                                PRN / # OF OBS      
   G21    60                                                PRN / # OF OBS      
   G25    60                                                PRN / # OF OBS      
   G26    60                                                PRN / # OF OBS      
   G29    60                                                PRN / # OF OBS      
   G31    60                                                PRN / # OF OBS      
   G32    60                                                PRN / # OF OBS      
THIS RINEX FILE IS CREATED FROM RTCM V3.0 DATA              COMMENT             
                                                            END OF HEADER       
 16 07 18 10 08  0.0000000  0  9G02G12G14G21G25G26G29G31G32
  24286386.978  
  23305177.486  
  21759395.936  
  24436605.918  
  21008830.100  
  24475175.258  
  20048509.688  
  21678590.616  
  22316093.592  
 16 07 18 10 08  1.0000000  0  9G02G12G14G21G25G26G29G31G32
  24286623.578  
  23305677.446  
  21759612.816  
  24436037.738  
  21009081.820  
  24474669.378  
  20048545.028  
  21678152.916  
  22316561.852  
 16 07 18 10 08  2.0000000  0  9G02G12G14G21G25G26G29G31G32
  24286859.958  
  23306178.106  
  21759829.636  
  24435469.858  
  21009333.740  
  24474162.838  
  20048580.548  
  21677715.436  
  22317030.332  
 16 07 18 10 08  3.0000000  0  9G02G12G14G21G25G26G29G31G32
  24287096.718  
  23306678.206  
  21760046.456  
  24434901.658  
  21009585.720  
  24473656.258  
  20048615.968  
  21677277.976  
  22317498.812  
 16 07 18 10 08  4.0000000  0  9G02G12G14G21G25G26G29G31G32
  24287333.578  
  23307178.606  
  21760263.216  
  24434333.438  
  21009837.360  
  24473149.938  
  20048651.768  
  21676840.716  
  22317967.612  
 16 07 18 10 08  5.0000000  0  9G02G12G14G21G25G26G29G31G32
  24287569.878  
  23307678.626  
  21760480.256  
  24433765.178  
  21010089.220  
  24472643.218  
  20048687.728  
  21676403.536  
  22318436.172  
 16 07 18 10 08  6.0000000  0  9G02G12G14G21G25G26G29G31G32
  24287806.178  
  23308178.806  
  21760697.316  
  24433197.718  
  21010340.780  
  24472136.698  
  20048723.768  
  21675965.916  
  22318905.232  
 16 07 18 10 08  7.0000000  0  9G02G12G14G21G25G26G29G31G32
  24288042.898  
  23308679.366  
  21760914.756  
  24432628.958  
  21010592.720  
  24471630.158  
  20048759.828  
  21675528.916  
  22319374.072  
 16 07 18 10 08  8.0000000  0  9G02G12G14G21G25G26G29G31G32
  24288280.178  
  23309179.746  
  21761132.056  
  24432061.078  
  21010844.640  
  24471123.578  
  20048795.888  
  21675091.456  
  22319842.952  
 16 07 18 10 08  9.0000000  0  9G02G12G14G21G25G26G29G31G32
  24288516.878  
  23309679.726  
  21761349.616  
  24431492.458  
  21011096.440  
  24470616.498  
  20048832.068  
  21674654.336  
  22320312.032  
 16 07 18 10 08 10.0000000  0  9G02G12G14G21G25G26G29G31G32
  24288753.598  
  23310180.886  
  21761567.176  
  24430924.958  
  21011348.680  
  24470110.258  
  20048868.408  
  21674217.456  
  22320781.292  
 16 07 18 10 08 11.0000000  0  9G02G12G14G21G25G26G29G31G32
  24288991.278  
  23310681.366  
  21761784.976  
  24430356.318  
  21011601.000  
  24469603.518  
  20048905.008  
  21673780.416  
  22321250.392  
 16 07 18 10 08 12.0000000  0  9G02G12G14G21G25G26G29G31G32
  24289228.578  
  23311181.886  
  21762002.916  
  24429788.578  
  21011853.200  
  24469097.398  
  20048941.528  
  21673343.716  
  22321719.072  
 16 07 18 10 08 13.0000000  0  9G02G12G14G21G25G26G29G31G32
  24289466.078  
  23311682.186  
  21762220.456  
  24429220.758  
  21012105.460  
  24468590.498  
  20048978.128  
  21672907.036  
  22322188.372  
 16 07 18 10 08 14.0000000  0  9G02G12G14G21G25G26G29G31G32
  24289703.818  
  23312182.586  
  21762438.476  
  24428651.978  
  21012357.800  
  24468084.418  
  20049015.168  
  21672470.336  
  22322657.632  
 16 07 18 10 08 15.0000000  0  9G02G12G14G21G25G26G29G31G32
  24289941.438  
  23312683.346  
  21762656.236  
  24428084.298  
  21012609.860  
  24467577.918  
  20049052.108  
  21672033.816  
  22323127.172  
 16 07 18 10 08 16.0000000  0  9G02G12G14G21G25G26G29G31G32
  24290178.758  
  23313183.186  
  21762874.856  
  24427516.538  
  21012862.120  
  24467071.978  
  20049089.368  
  21671596.996  
  22323596.592  
 16 07 18 10 08 17.0000000  0  9G02G12G14G21G25G26G29G31G32
  24290416.498  
  23313684.366  
  21763093.256  
  24426948.158  
  21013114.260  
  24466566.358  
  20049126.588  
  21671160.236  
  22324066.052  
 16 07 18 10 08 18.0000000  0  9G02G12G14G21G25G26G29G31G32
  24290654.918  
  23314184.846  
  21763311.876  
  24426379.818  
  21013366.800  
  24466059.998  
  20049163.708  
  21670723.576  
  22324535.712  
 16 07 18 10 08 19.0000000  0  9G02G12G14G21G25G26G29G31G32
  24290892.678  
  23314685.366  
  21763530.536  
  24425811.558  
  21013619.300  
  24465552.758  
  20049201.128  
  21670286.896  
  22325005.552  
 16 07 18 10 08 20.0000000  0  9G02G12G14G21G25G26G29G31G32
  24291130.838  
  23315185.766  
  21763749.876  
  24425243.798  
  21013871.760  
  24465047.058  
  20049238.688  
  21669850.536  
  22325475.212  
 16 07 18 10 08 21.0000000  0  9G02G12G14G21G25G26G29G31G32
  24291368.718  
  23315686.446  
  21763968.556  
  24424675.918  
  21014124.460  
  24464540.698  
  20049276.368  
  21669414.196  
  22325945.092  
 16 07 18 10 08 22.0000000  0  9G02G12G14G21G25G26G29G31G32
  24291606.698  
  23316186.646  
  21764187.136  
  24424108.098  
  21014376.980  
  24464034.638  
  20049314.008  
  21668977.916  
  22326414.892  
 16 07 18 10 08 23.0000000  0  9G02G12G14G21G25G26G29G31G32
  24291845.098  
  23316687.286  
  21764406.236  
  24423540.518  
  21014629.600  
  24463527.678  
  20049352.068  
  21668541.456  
  22326884.872  
 16 07 18 10 08 24.0000000  0  9G02G12G14G21G25G26G29G31G32
  24292083.578  
  23317187.886  
  21764625.456  
  24422971.598  
  21014882.280  
  24463021.058  
  20049390.228  
  21668105.176  
  22327355.212  
 16 07 18 10 08 25.0000000  0  9G02G12G14G21G25G26G29G31G32
  24292322.938  
  23317688.466  
  21764844.756  
  24422403.858  
  21015134.920  
  24462514.578  
  20049428.188  
  21667668.836  
  22327825.792  
 16 07 18 10 08 26.0000000  0  9G02G12G14G21G25G26G29G31G32
  24292561.718  
  23318189.006  
  21765064.116  
  24421835.158  
  21015387.620  
  24462008.998  
  20049466.448  
  21667232.696  
  22328296.232  
 16 07 18 10 08 27.0000000  0  9G02G12G14G21G25G26G29G31G32
  24292800.358  
  23318689.646  
  21765283.996  
  24421266.678  
  21015640.260  
  24461501.938  
  20049505.048  
  21666796.636  
  22328766.612  
 16 07 18 10 08 28.0000000  0  9G02G12G14G21G25G26G29G31G32
  24293039.258  
  23319190.366  
  21765503.396  
  24420698.478  
  21015893.220  
  24460995.678  
  20049543.528  
  21666360.716  
  22329237.252  
 16 07 18 10 08 29.0000000  0  9G02G12G14G21G25G26G29G31G32
  24293278.178  
  23319690.806  
  21765722.936  
  24420130.678  
  21016146.020  
  24460489.178  
  20049582.088  
  21665924.716  
  22329707.632  
 16 07 18 10 08 30.0000000  0  9G02G12G14G21G25G26G29G31G32
  24293517.478  
  23320191.326  
  21765942.696  
  24419562.658  
  21016398.680  
  24459983.458  
  20049620.808  
  21665488.976  
  22330178.332  
 16 07 18 10 08 31.0000000  0  9G02G12G14G21G25G26G29G31G32
  24293756.938  
  23320692.286  
  21766163.116  
  24418994.178  
  21016651.660  
  24459477.378  
  20049659.648  
  21665053.176  
  22330648.852  
 16 07 18 10 08 32.0000000  0  9G02G12G14G21G25G26G29G31G32
  24293996.158  
  23321192.106  
  21766383.496  
  24418425.718  
  21016904.600  
  24458971.698  
  20049698.588  
  21664617.416  
  22331119.752  
 16 07 18 10 08 33.0000000  0  9G02G12G14G21G25G26G29G31G32
  24294235.458  
  23321693.146  
  21766603.376  
  24417857.438  
  21017157.620  
  24458465.878  
  20049737.628  
  21664181.796  
  22331590.392  
 16 07 18 10 08 34.0000000  0  9G02G12G14G21G25G26G29G31G32
  24294473.978  
  23322194.086  
  21766823.176  
  24417289.278  
  21017410.740  
  24457960.218  
  20049776.708  
  21663746.236  
  22332061.092  
 16 07 18 10 08 35.0000000  0  9G02G12G14G21G25G26G29G31G32
  24294713.378  
  23322694.186  
  21767043.796  
  24416721.758  
  21017663.860  
  24457453.798  
  20049815.868  
  21663310.436  
  22332531.932  
 16 07 18 10 08 36.0000000  0  9G02G12G14G21G25G26G29G31G32
  24294952.778  
  23323195.186  
  21767264.876  
  24416153.778  
  21017917.020  
  24456947.618  
  20049855.288  
  21662874.976  
  22333003.132  
 16 07 18 10 08 37.0000000  0  9G02G12G14G21G25G26G29G31G32
  24295192.218  
  23323695.666  
  21767484.916  
  24415585.138  
  21018170.180  
  24456441.498  
  20049894.868  
  21662439.576  
  22333474.032  
 16 07 18 10 08 38.0000000  0  9G02G12G14G21G25G26G29G31G32
  24295431.958  
  23324196.506  
  21767706.016  
  24415017.418  
  21018423.400  
  24455935.018  
  20049934.428  
  21662004.076  
  22333945.112  
 16 07 18 10 08 39.0000000  0  9G02G12G14G21G25G26G29G31G32
  24295671.858  
  23324697.806  
  21767926.896  
  24414449.438  
  21018676.440  
  24455429.018  
  20049974.208  
  21661568.476  
  22334416.272  
 16 07 18 10 08 40.0000000  0  9G02G12G14G21G25G26G29G31G32
  24295911.858  
  23325198.426  
  21768147.536  
  24413882.158  
  21018930.100  
  24454921.658  
  20050014.328  
  21661133.336  
  22334887.832  
 16 07 18 10 08 41.0000000  0  9G02G12G14G21G25G26G29G31G32
  24296152.718  
  23325699.126  
  21768368.736  
  24413313.498  
  21019183.320  
  24454415.478  
  20050054.328  
  21660698.356  
  22335359.272  
 16 07 18 10 08 42.0000000  0  9G02G12G14G21G25G26G29G31G32
  24296392.698  
  23326200.146  
  21768589.976  
  24412745.778  
  21019436.980  
  24453908.698  
  20050094.288  
  21660263.076  
  22335830.832  
 16 07 18 10 08 43.0000000  0  9G02G12G14G21G25G26G29G31G32
  24296632.798  
  23326701.146  
  21768811.496  
  24412177.338  
  21019690.340  
  24453403.038  
  20050134.408  
  21659827.776  
  22336302.612  
 16 07 18 10 08 44.0000000  0  9G02G12G14G21G25G26G29G31G32
  24296872.858  
  23327202.146  
  21769032.996  
  24411609.438  
  21019943.880  
  24452897.238  
  20050174.728  
  21659392.636  
  22336774.392  
 16 07 18 10 08 45.0000000  0  9G02G12G14G21G25G26G29G31G32
  24297112.478  
  23327702.506  
  21769254.476  
  24411041.238  
  21020197.360  
  24452391.418  
  20050214.988  
  21658957.696  
  22337246.672  
 16 07 18 10 08 46.0000000  0  9G02G12G14G21G25G26G29G31G32
  24297353.638  
  23328203.426  
  21769476.296  
  24410472.538  
  21020450.900  
  24451885.058  
  20050255.648  
  21658522.596  
  22337718.112  
 16 07 18 10 08 47.0000000  0  9G02G12G14G21G25G26G29G31G32
  24297593.718  
  23328704.166  
  21769698.056  
  24409905.018  
  21020704.780  
  24451379.318  
  20050296.388  
  21658087.876  
  22338190.212  
 16 07 18 10 08 48.0000000  0  9G02G12G14G21G25G26G29G31G32
  24297834.638  
  23329204.706  
  21769919.596  
  24409336.658  
  21020958.360  
  24450873.638  
  20050337.188  
  21657653.116  
  22338662.112  
 16 07 18 10 08 49.0000000  0  9G02G12G14G21G25G26G29G31G32
  24298075.318  
  23329705.486  
  21770141.796  
  24408768.938  
  21021212.240  
  24450367.958  
  20050378.108  
  21657218.196  
  22339134.292  
 16 07 18 10 08 50.0000000  0  9G02G12G14G21G25G26G29G31G32
  24298316.498  
  23330206.286  
  21770364.116  
  24408200.738  
  21021465.520  
  24449862.638  
  20050419.148  
  21656783.176  
  22339606.092  
 16 07 18 10 08 51.0000000  0  9G02G12G14G21G25G26G29G31G32
  24298557.838  
  23330707.206  
  21770585.996  
  24407632.638  
  21021719.320  
  24449356.938  
  20050460.248  
  21656348.656  
  22340078.612  
 16 07 18 10 08 52.0000000  0  9G02G12G14G21G25G26G29G31G32
  24298798.858  
  23331207.886  
  21770808.336  
  24407063.918  
  21021973.520  
  24448850.778  
  20050501.588  
  21655914.056  
  22340551.152  
 16 07 18 10 08 53.0000000  0  9G02G12G14G21G25G26G29G31G32
  24299039.878  
  23331708.986  
  21771030.616  
  24406496.458  
  21022227.140  
  24448344.758  
  20050542.768  
  21655479.596  
  22341023.512  
 16 07 18 10 08 54.0000000  0  9G02G12G14G21G25G26G29G31G32
  24299280.778  
  23332209.726  
  21771253.336  
  24405928.358  
  21022481.160  
  24447838.378  
  20050584.308  
  21655045.136  
  22341495.652  
 16 07 18 10 08 55.0000000  0  9G02G12G14G21G25G26G29G31G32
  24299522.098  
  23332710.386  
  21771476.156  
  24405360.498  
  21022735.240  
  24447332.298  
  20050626.028  
  21654610.476  
  22341968.012  
 16 07 18 10 08 56.0000000  0  9G02G12G14G21G25G26G29G31G32
  24299763.578  
  23333211.246  
  21771698.676  
  24404792.338  
  21022989.240  
  24446826.078  
  20050667.668  
  21654176.296  
  22342440.552  
 16 07 18 10 08 57.0000000  0  9G02G12G14G21G25G26G29G31G32
  24300005.218  
  23333712.186  
  21771921.936  
  24404224.218  
  21023243.360  
  24446319.978  
  20050709.588  
  21653741.896  
  22342913.352  
 16 07 18 10 08 58.0000000  0  9G02G12G14G21G25G26G29G31G32
  24300247.018  
  23334213.166  
  21772145.416  
  24403655.918  
  21023497.620  
  24445813.618  
  20050751.368  
  21653307.436  
  22343386.192  
 16 07 18 10 08 59.0000000  0  9G02G12G14G21G25G26G29G31G32
  24300488.858  
  23334714.646  
  21772368.216  
  24403087.118  
  21023751.760  
  24445307.438  
  20050793.428  
  21652872.956  
  22343858.952  
