     2.11           OBSERVATION DATA    G                   RINEX VERSION / TYPE
Spider V4,3,0,4633  DGT                 2016 07 18 10:05    PGM / RUN BY / DATE 
IGP0                                                        MARKER NAME         
IGP0                                                        MARKER NUMBER       
Carla Martins       DIRECAO-GERAL DO TERRITORIO             OBSERVER / AGENCY   
40101683            TPS NETG3                               REC # / TYPE / VERS 
07340159            LEIAX1202GG     NONE                    ANT # / TYPE        
  4919032.1862  -793055.3627  3968746.4404                  APPROX POSITION XYZ 
        0.0000        0.0000        0.0000                  ANTENNA: DELTA H/E/N
     1     1                                                WAVELENGTH FACT L1/2
     1    C1                                                # / TYPES OF OBSERV 
     1.000                                                  INTERVAL            
  2016    07    18    10    05    0.0000000     GPS         TIME OF FIRST OBS   
  2016    07    18    10    05   59.0000000     GPS         TIME OF LAST OBS    
    17                                                      LEAP SECONDS        
     9                                                      # OF SATELLITES     
   G 2    59                                                PRN / # OF OBS      
   G12    60                                                PRN / # OF OBS      
   G14    60                                                PRN / # OF OBS      
   G21    60                                                PRN / # OF OBS      
   G25    60                                                PRN / # OF OBS      
   G26    60                                                PRN / # OF OBS      
   G29    60                                                PRN / # OF OBS      
   G31    60                                                PRN / # OF OBS      
   G32    60                                                PRN / # OF OBS      
THIS RINEX FILE IS CREATED FROM RTCM V3.0 DATA              COMMENT             
                                                            END OF HEADER       
 16 07 18 10 05  0.0000000  0  9G02G12G14G21G25G26G29G31G32
  24245397.040  
  23215291.426  
  21722257.556  
  24538838.178  
  20964251.382  
  24566572.058  
  20044049.688  
  21758242.636  
  22233072.932  
 16 07 18 10 05  1.0000000  0  9G02G12G14G21G25G26G29G31G32
  24245616.260  
  23215790.006  
  21722454.016  
  24538270.918  
  20964495.042  
  24566063.218  
  20044064.008  
  21757795.256  
  22233526.972  
 16 07 18 10 05  2.0000000  0  9G02G12G14G21G25G26G29G31G32
  24245836.260  
  23216288.566  
  21722649.716  
  24537703.338  
  20964738.722  
  24565554.578  
  20044078.588  
  21757348.056  
  22233981.272  
 16 07 18 10 05  3.0000000  0  9G02G12G14G21G25G26G29G31G32
  24246055.400  
  23216787.046  
  21722846.096  
  24537134.898  
  20964982.302  
  24565045.338  
  20044093.108  
  21756900.496  
  22234435.372  
 16 07 18 10 05  4.0000000  0  9G02G12G14G21G25G26G29G31G32
  24246274.900  
  23217285.206  
  21723042.596  
  24536567.018  
  20965226.262  
  24564536.878  
  20044107.688  
  21756453.796  
  22234889.672  
 16 07 18 10 05  5.0000000  0  9G02G12G14G21G25G26G29G31G32
  24246495.420  
  23217783.906  
  21723239.096  
  24535999.678  
  20965470.082  
  24564028.298  
  20044122.568  
  21756006.756  
  22235344.092  
 16 07 18 10 05  6.0000000  0  9G02G12G14G21G25G26G29G31G32
  24246714.120  
  23218282.186  
  21723435.616  
  24535431.138  
  20965714.082  
  24563520.518  
  20044137.308  
  21755559.536  
  22235798.552  
 16 07 18 10 05  7.0000000  0  9G02G12G14G21G25G26G29G31G32
  24246934.100  
  23218780.706  
  21723632.576  
  24534863.818  
  20965958.222  
  24563011.838  
  20044152.508  
  21755112.036  
  22236253.072  
 16 07 18 10 05  8.0000000  0  9G02G12G14G21G25G26G29G31G32
  24247153.820  
  23219279.226  
  21723829.696  
  24534296.038  
  20966202.442  
  24562503.018  
  20044167.168  
  21754665.236  
  22236707.612  
 16 07 18 10 05  9.0000000  0  9G02G12G14G21G25G26G29G31G32
  24247373.800  
  23219777.706  
  21724026.936  
  24533727.858  
  20966446.502  
  24561993.358  
  20044182.508  
  21754218.296  
  22237162.092  
 16 07 18 10 05 10.0000000  0  9G02G12G14G21G25G26G29G31G32
  24247594.200  
  23220275.746  
  21724223.876  
  24533159.818  
  20966690.522  
  24561485.138  
  20044198.148  
  21753771.316  
  22237616.952  
 16 07 18 10 05 11.0000000  0  9G02G12G14G21G25G26G29G31G32
  24247813.840  
  23220774.866  
  21724420.916  
  24532592.358  
  20966934.602  
  24560975.518  
  20044213.608  
  21753324.496  
  22238071.892  
 16 07 18 10 05 12.0000000  0  8G12G14G21G25G26G29G31G32
  23221273.226  
  21724618.296  
  24532024.558  
  20967178.862  
  24560465.858  
  20044229.088  
  21752877.596  
  22238526.732  
 16 07 18 10 05 13.0000000  0  9G02G12G14G21G25G26G29G31G32
  24248255.840  
  23221771.786  
  21724815.836  
  24531457.618  
  20967422.942  
  24559956.938  
  20044244.928  
  21752430.776  
  22238981.872  
 16 07 18 10 05 14.0000000  0  9G02G12G14G21G25G26G29G31G32
  24248474.640  
  23222270.326  
  21725013.316  
  24530888.798  
  20967667.222  
  24559446.838  
  20044260.708  
  21751983.996  
  22239436.912  
 16 07 18 10 05 15.0000000  0  9G02G12G14G21G25G26G29G31G32
  24248695.880  
  23222768.886  
  21725211.336  
  24530320.998  
  20967911.602  
  24558938.518  
  20044276.488  
  21751537.476  
  22239892.232  
 16 07 18 10 05 16.0000000  0  9G02G12G14G21G25G26G29G31G32
  24248916.940  
  23223267.086  
  21725409.136  
  24529753.438  
  20968156.062  
  24558429.438  
  20044292.568  
  21751090.736  
  22240347.392  
 16 07 18 10 05 17.0000000  0  9G02G12G14G21G25G26G29G31G32
  24249136.620  
  23223766.126  
  21725606.976  
  24529186.138  
  20968400.302  
  24557921.038  
  20044308.768  
  21750644.056  
  22240802.812  
 16 07 18 10 05 18.0000000  0  9G02G12G14G21G25G26G29G31G32
  24249358.440  
  23224265.046  
  21725804.976  
  24528618.618  
  20968644.682  
  24557413.558  
  20044325.208  
  21750197.856  
  22241258.392  
 16 07 18 10 05 19.0000000  0  9G02G12G14G21G25G26G29G31G32
  24249579.480  
  23224763.286  
  21726002.976  
  24528050.238  
  20968889.142  
  24556905.798  
  20044341.608  
  21749751.216  
  22241713.832  
 16 07 18 10 05 20.0000000  0  9G02G12G14G21G25G26G29G31G32
  24249800.820  
  23225262.366  
  21726201.216  
  24527482.838  
  20969133.562  
  24556397.598  
  20044358.228  
  21749305.116  
  22242169.372  
 16 07 18 10 05 21.0000000  0  9G02G12G14G21G25G26G29G31G32
  24250022.060  
  23225760.906  
  21726399.436  
  24526914.898  
  20969378.342  
  24555888.998  
  20044374.788  
  21748858.816  
  22242624.952  
 16 07 18 10 05 22.0000000  0  9G02G12G14G21G25G26G29G31G32
  24250243.080  
  23226259.706  
  21726598.056  
  24526347.178  
  20969622.962  
  24555379.818  
  20044391.548  
  21748413.076  
  22243080.892  
 16 07 18 10 05 23.0000000  0  9G02G12G14G21G25G26G29G31G32
  24250465.020  
  23226757.986  
  21726796.856  
  24525779.118  
  20969867.502  
  24554870.498  
  20044408.448  
  21747966.936  
  22243536.812  
 16 07 18 10 05 24.0000000  0  9G02G12G14G21G25G26G29G31G32
  24250686.140  
  23227256.406  
  21726995.796  
  24525211.078  
  20970112.262  
  24554362.598  
  20044425.568  
  21747520.596  
  22243992.592  
 16 07 18 10 05 25.0000000  0  9G02G12G14G21G25G26G29G31G32
  24250908.000  
  23227755.106  
  21727194.716  
  24524643.578  
  20970357.002  
  24553852.918  
  20044442.688  
  21747074.356  
  22244448.492  
 16 07 18 10 05 26.0000000  0  9G02G12G14G21G25G26G29G31G32
  24251130.040  
  23228253.566  
  21727393.896  
  24524076.038  
  20970601.782  
  24553344.278  
  20044459.888  
  21746628.556  
  22244904.392  
 16 07 18 10 05 27.0000000  0  9G02G12G14G21G25G26G29G31G32
  24251350.840  
  23228751.526  
  21727592.976  
  24523508.338  
  20970846.862  
  24552835.778  
  20044477.388  
  21746182.556  
  22245360.612  
 16 07 18 10 05 28.0000000  0  9G02G12G14G21G25G26G29G31G32
  24251572.460  
  23229250.826  
  21727792.176  
  24522940.358  
  20971091.502  
  24552327.258  
  20044494.768  
  21745736.496  
  22245816.632  
 16 07 18 10 05 29.0000000  0  9G02G12G14G21G25G26G29G31G32
  24251794.780  
  23229750.006  
  21727991.176  
  24522373.578  
  20971336.602  
  24551819.578  
  20044512.528  
  21745290.676  
  22246273.112  
 16 07 18 10 05 30.0000000  0  9G02G12G14G21G25G26G29G31G32
  24252017.900  
  23230248.826  
  21728190.576  
  24521805.718  
  20971581.382  
  24551310.658  
  20044530.148  
  21744844.676  
  22246729.512  
 16 07 18 10 05 31.0000000  0  9G02G12G14G21G25G26G29G31G32
  24252238.300  
  23230747.406  
  21728390.116  
  24521237.658  
  20971826.602  
  24550802.418  
  20044548.048  
  21744399.076  
  22247186.032  
 16 07 18 10 05 32.0000000  0  9G02G12G14G21G25G26G29G31G32
  24252459.900  
  23231246.006  
  21728589.816  
  24520670.398  
  20972071.662  
  24550294.638  
  20044565.968  
  21743953.476  
  22247642.652  
 16 07 18 10 05 33.0000000  0  9G02G12G14G21G25G26G29G31G32
  24252682.960  
  23231745.226  
  21728789.796  
  24520101.958  
  20972316.722  
  24549785.678  
  20044584.108  
  21743507.456  
  22248099.412  
 16 07 18 10 05 34.0000000  0  9G02G12G14G21G25G26G29G31G32
  24252905.100  
  23232243.946  
  21728989.796  
  24519534.378  
  20972561.742  
  24549277.578  
  20044602.348  
  21743061.856  
  22248556.032  
 16 07 18 10 05 35.0000000  0  9G02G12G14G21G25G26G29G31G32
  24253127.520  
  23232743.226  
  21729189.896  
  24518966.218  
  20972806.882  
  24548768.618  
  20044620.448  
  21742616.436  
  22249012.932  
 16 07 18 10 05 36.0000000  0  9G02G12G14G21G25G26G29G31G32
  24253350.540  
  23233241.626  
  21729389.976  
  24518399.038  
  20973052.362  
  24548260.058  
  20044638.828  
  21742171.016  
  22249469.852  
 16 07 18 10 05 37.0000000  0  9G02G12G14G21G25G26G29G31G32
  24253572.760  
  23233740.666  
  21729590.176  
  24517830.198  
  20973297.442  
  24547751.298  
  20044657.328  
  21741725.576  
  22249926.712  
 16 07 18 10 05 38.0000000  0  9G02G12G14G21G25G26G29G31G32
  24253796.240  
  23234239.186  
  21729790.136  
  24517262.198  
  20973542.802  
  24547242.018  
  20044676.008  
  21741280.236  
  22250383.932  
 16 07 18 10 05 39.0000000  0  9G02G12G14G21G25G26G29G31G32
  24254018.900  
  23234738.586  
  21729990.656  
  24516694.898  
  20973788.222  
  24546733.098  
  20044694.788  
  21740834.676  
  22250840.952  
 16 07 18 10 05 40.0000000  0  9G02G12G14G21G25G26G29G31G32
  24254241.980  
  23235237.426  
  21730191.016  
  24516126.358  
  20974033.582  
  24546224.738  
  20044713.688  
  21740389.616  
  22251298.132  
 16 07 18 10 05 41.0000000  0  9G02G12G14G21G25G26G29G31G32
  24254465.820  
  23235736.306  
  21730391.556  
  24515558.358  
  20974279.122  
  24545716.858  
  20044732.668  
  21739944.256  
  22251755.452  
 16 07 18 10 05 42.0000000  0  9G02G12G14G21G25G26G29G31G32
  24254688.000  
  23236234.686  
  21730592.736  
  24514991.598  
  20974524.702  
  24545208.658  
  20044752.008  
  21739499.176  
  22252212.872  
 16 07 18 10 05 43.0000000  0  9G02G12G14G21G25G26G29G31G32
  24254911.300  
  23236733.746  
  21730793.956  
  24514423.438  
  20974770.002  
  24544700.958  
  20044771.208  
  21739054.176  
  22252670.512  
 16 07 18 10 05 44.0000000  0  9G02G12G14G21G25G26G29G31G32
  24255134.700  
  23237232.906  
  21730995.076  
  24513855.798  
  20975015.822  
  24544192.918  
  20044790.628  
  21738609.216  
  22253128.092  
 16 07 18 10 05 45.0000000  0  9G02G12G14G21G25G26G29G31G32
  24255357.640  
  23237731.706  
  21731196.316  
  24513287.878  
  20975261.342  
  24543684.558  
  20044810.048  
  21738163.916  
  22253585.552  
 16 07 18 10 05 46.0000000  0  9G02G12G14G21G25G26G29G31G32
  24255580.460  
  23238230.526  
  21731397.556  
  24512719.638  
  20975507.002  
  24543176.598  
  20044829.748  
  21737719.036  
  22254043.392  
 16 07 18 10 05 47.0000000  0  9G02G12G14G21G25G26G29G31G32
  24255804.980  
  23238729.146  
  21731598.816  
  24512152.178  
  20975753.022  
  24542667.798  
  20044849.368  
  21737274.116  
  22254501.192  
 16 07 18 10 05 48.0000000  0  9G02G12G14G21G25G26G29G31G32
  24256028.520  
  23239228.266  
  21731800.096  
  24511584.078  
  20975998.822  
  24542159.218  
  20044869.268  
  21736829.476  
  22254958.972  
 16 07 18 10 05 49.0000000  0  9G02G12G14G21G25G26G29G31G32
  24256252.620  
  23239727.106  
  21732001.776  
  24511016.938  
  20976244.382  
  24541651.278  
  20044889.148  
  21736384.696  
  22255416.792  
 16 07 18 10 05 50.0000000  0  9G02G12G14G21G25G26G29G31G32
  24256476.700  
  23240225.686  
  21732203.596  
  24510448.618  
  20976490.082  
  24541142.898  
  20044909.208  
  21735940.096  
  22255874.732  
 16 07 18 10 05 51.0000000  0  9G02G12G14G21G25G26G29G31G32
  24256700.360  
  23240724.286  
  21732405.616  
  24509880.518  
  20976736.042  
  24540633.718  
  20044929.348  
  21735495.156  
  22256332.872  
 16 07 18 10 05 52.0000000  0  9G02G12G14G21G25G26G29G31G32
  24256923.740  
  23241223.106  
  21732607.536  
  24509312.698  
  20976981.842  
  24540125.558  
  20044949.648  
  21735050.436  
  22256790.812  
 16 07 18 10 05 53.0000000  0  9G02G12G14G21G25G26G29G31G32
  24257148.980  
  23241722.286  
  21732809.476  
  24508744.058  
  20977227.962  
  24539617.578  
  20044970.048  
  21734605.856  
  22257249.132  
 16 07 18 10 05 54.0000000  0  9G02G12G14G21G25G26G29G31G32
  24257372.700  
  23242220.866  
  21733011.536  
  24508176.718  
  20977473.782  
  24539109.278  
  20044990.528  
  21734161.276  
  22257707.592  
 16 07 18 10 05 55.0000000  0  9G02G12G14G21G25G26G29G31G32
  24257596.180  
  23242719.966  
  21733213.796  
  24507608.018  
  20977720.002  
  24538601.458  
  20045011.068  
  21733716.976  
  22258166.092  
 16 07 18 10 05 56.0000000  0  9G02G12G14G21G25G26G29G31G32
  24257820.980  
  23243219.086  
  21733416.276  
  24507040.618  
  20977966.082  
  24538093.618  
  20045031.908  
  21733272.416  
  22258624.652  
 16 07 18 10 05 57.0000000  0  9G02G12G14G21G25G26G29G31G32
  24258046.380  
  23243718.306  
  21733618.636  
  24506472.558  
  20978212.242  
  24537585.678  
  20045052.828  
  21732828.096  
  22259083.252  
 16 07 18 10 05 58.0000000  0  9G02G12G14G21G25G26G29G31G32
  24258270.300  
  23244217.406  
  21733821.216  
  24505905.538  
  20978458.762  
  24537077.478  
  20045073.888  
  21732383.696  
  22259541.852  
 16 07 18 10 05 59.0000000  0  9G02G12G14G21G25G26G29G31G32
  24258495.440  
  23244716.526  
  21734024.096  
  24505336.698  
  20978705.202  
  24536569.058  
  20045094.868  
  21731939.356  
  22260000.532  
