     2.11           OBSERVATION DATA    G                   RINEX VERSION / TYPE
Spider V4,3,0,4633  DGT                 2016 07 18 14:08    PGM / RUN BY / DATE 
IGP0                                                        MARKER NAME         
IGP0                                                        MARKER NUMBER       
Carla Martins       DIRECAO-GERAL DO TERRITORIO             OBSERVER / AGENCY   
40101683            TPS NETG3                               REC # / TYPE / VERS 
07340159            LEIAX1202GG     NONE                    ANT # / TYPE        
  4919032.1862  -793055.3627  3968746.4404                  APPROX POSITION XYZ 
        0.0000        0.0000        0.0000                  ANTENNA: DELTA H/E/N
     1     1                                                WAVELENGTH FACT L1/2
     1    C1                                                # / TYPES OF OBSERV 
     1.000                                                  INTERVAL            
  2016    07    18    14    08    0.0000000     GPS         TIME OF FIRST OBS   
  2016    07    18    14    08   59.0000000     GPS         TIME OF LAST OBS    
    17                                                      LEAP SECONDS        
    10                                                      # OF SATELLITES     
   G 7    60                                                PRN / # OF OBS      
   G 8    60                                                PRN / # OF OBS      
   G10    60                                                PRN / # OF OBS      
   G16    60                                                PRN / # OF OBS      
   G18    60                                                PRN / # OF OBS      
   G20    60                                                PRN / # OF OBS      
   G21    60                                                PRN / # OF OBS      
   G26    60                                                PRN / # OF OBS      
   G27    60                                                PRN / # OF OBS      
   G31    60                                                PRN / # OF OBS      
THIS RINEX FILE IS CREATED FROM RTCM V3.0 DATA              COMMENT             
                                                            END OF HEADER       
 16 07 18 14 08  0.0000000  0 10G07G08G10G16G18G20G21G26G27G31
  25025273.034  
  23397868.084  
  23110005.686  
  20358609.366  
  22748829.330  
  24489450.118  
  22868249.748  
  20606188.204  
  21019481.960  
  24622986.176  
 16 07 18 14 08  1.0000000  0 10G07G08G10G16G18G20G21G26G27G31
  25024759.654  
  23397406.344  
  23109472.486  
  20358472.446  
  22748690.690  
  24489833.298  
  22868707.928  
  20606408.004  
  21019248.880  
  24623650.276  
 16 07 18 14 08  2.0000000  0 10G07G08G10G16G18G20G21G26G27G31
  25024246.814  
  23396944.204  
  23108939.806  
  20358335.766  
  22748552.010  
  24490216.338  
  22869166.148  
  20606627.764  
  21019015.880  
  24624314.196  
 16 07 18 14 08  3.0000000  0 10G07G08G10G16G18G20G21G26G27G31
  25023733.494  
  23396481.964  
  23108406.926  
  20358199.186  
  22748413.490  
  24490600.218  
  22869623.908  
  20606847.584  
  21018782.620  
  24624978.356  
 16 07 18 14 08  4.0000000  0 10G07G08G10G16G18G20G21G26G27G31
  25023219.554  
  23396020.844  
  23107873.626  
  20358062.786  
  22748275.030  
  24490983.758  
  22870082.148  
  20607067.524  
  21018549.780  
  24625642.216  
 16 07 18 14 08  5.0000000  0 10G07G08G10G16G18G20G21G26G27G31
  25022705.854  
  23395558.364  
  23107340.866  
  20357926.266  
  22748136.950  
  24491366.278  
  22870540.108  
  20607287.504  
  21018316.880  
  24626306.736  
 16 07 18 14 08  6.0000000  0 10G07G08G10G16G18G20G21G26G27G31
  25022191.994  
  23395096.044  
  23106808.106  
  20357790.166  
  22747998.790  
  24491750.718  
  22870998.048  
  20607507.684  
  21018084.040  
  24626970.636  
 16 07 18 14 08  7.0000000  0 10G07G08G10G16G18G20G21G26G27G31
  25021679.014  
  23394633.684  
  23106275.486  
  20357653.806  
  22747861.070  
  24492134.158  
  22871456.348  
  20607727.964  
  21017851.080  
  24627634.816  
 16 07 18 14 08  8.0000000  0 10G07G08G10G16G18G20G21G26G27G31
  25021165.694  
  23394172.104  
  23105742.606  
  20357517.746  
  22747723.210  
  24492518.158  
  22871914.488  
  20607948.344  
  21017618.220  
  24628298.456  
 16 07 18 14 08  9.0000000  0 10G07G08G10G16G18G20G21G26G27G31
  25020652.594  
  23393710.264  
  23105209.426  
  20357381.846  
  22747585.370  
  24492902.838  
  22872372.668  
  20608168.744  
  21017385.420  
  24628962.536  
 16 07 18 14 08 10.0000000  0 10G07G08G10G16G18G20G21G26G27G31
  25020139.314  
  23393248.244  
  23104677.086  
  20357245.966  
  22747447.410  
  24493286.878  
  22872830.968  
  20608389.264  
  21017152.820  
  24629626.576  
 16 07 18 14 08 11.0000000  0 10G07G08G10G16G18G20G21G26G27G31
  25019626.154  
  23392785.844  
  23104144.746  
  20357109.886  
  22747309.930  
  24493671.298  
  22873289.288  
  20608609.824  
  21016920.100  
  24630290.536  
 16 07 18 14 08 12.0000000  0 10G07G08G10G16G18G20G21G26G27G31
  25019114.534  
  23392323.664  
  23103611.646  
  20356974.066  
  22747172.170  
  24494055.098  
  22873747.348  
  20608830.484  
  21016687.600  
  24630954.416  
 16 07 18 14 08 13.0000000  0 10G07G08G10G16G18G20G21G26G27G31
  25018601.534  
  23391861.664  
  23103078.786  
  20356838.466  
  22747034.450  
  24494439.678  
  22874205.968  
  20609051.384  
  21016454.960  
  24631618.356  
 16 07 18 14 08 14.0000000  0 10G07G08G10G16G18G20G21G26G27G31
  25018088.474  
  23391399.664  
  23102546.966  
  20356702.926  
  22746897.230  
  24494823.418  
  22874664.588  
  20609272.104  
  21016222.440  
  24632281.836  
 16 07 18 14 08 15.0000000  0 10G07G08G10G16G18G20G21G26G27G31
  25017576.194  
  23390937.404  
  23102014.746  
  20356567.086  
  22746760.010  
  24495208.398  
  22875123.488  
  20609493.084  
  21015990.220  
  24632945.636  
 16 07 18 14 08 16.0000000  0 10G07G08G10G16G18G20G21G26G27G31
  25017063.654  
  23390475.404  
  23101482.406  
  20356431.686  
  22746622.670  
  24495592.758  
  22875582.108  
  20609714.184  
  21015757.620  
  24633609.836  
 16 07 18 14 08 17.0000000  0 10G07G08G10G16G18G20G21G26G27G31
  25016550.994  
  23390013.884  
  23100949.846  
  20356296.366  
  22746485.890  
  24495977.118  
  22876040.708  
  20609935.324  
  21015525.160  
  24634274.376  
 16 07 18 14 08 18.0000000  0 10G07G08G10G16G18G20G21G26G27G31
  25016039.274  
  23389551.884  
  23100417.786  
  20356160.986  
  22746348.790  
  24496362.278  
  22876499.288  
  20610157.064  
  21015293.000  
  24634938.296  
 16 07 18 14 08 19.0000000  0 10G07G08G10G16G18G20G21G26G27G31
  25015526.314  
  23389090.084  
  23099885.746  
  20356026.086  
  22746211.790  
  24496746.758  
  22876957.888  
  20610378.464  
  21015060.720  
  24635602.256  
 16 07 18 14 08 20.0000000  0 10G07G08G10G16G18G20G21G26G27G31
  25015013.074  
  23388628.364  
  23099353.606  
  20355891.146  
  22746075.270  
  24497132.158  
  22877416.488  
  20610600.044  
  21014828.220  
  24636265.936  
 16 07 18 14 08 21.0000000  0 10G07G08G10G16G18G20G21G26G27G31
  25014501.014  
  23388166.304  
  23098821.266  
  20355756.326  
  22745938.350  
  24497517.138  
  22877875.468  
  20610821.864  
  21014596.000  
  24636930.136  
 16 07 18 14 08 22.0000000  0 10G07G08G10G16G18G20G21G26G27G31
  25013988.654  
  23387704.724  
  23098289.726  
  20355621.486  
  22745801.510  
  24497902.478  
  22878333.908  
  20611043.504  
  21014363.900  
  24637594.376  
 16 07 18 14 08 23.0000000  0 10G07G08G10G16G18G20G21G26G27G31
  25013476.974  
  23387242.964  
  23097757.566  
  20355486.486  
  22745664.610  
  24498286.698  
  22878792.828  
  20611265.504  
  21014131.640  
  24638257.976  
 16 07 18 14 08 24.0000000  0 10G07G08G10G16G18G20G21G26G27G31
  25012965.414  
  23386781.024  
  23097225.806  
  20355351.886  
  22745528.330  
  24498672.398  
  22879251.368  
  20611487.144  
  21013899.420  
  24638921.756  
 16 07 18 14 08 25.0000000  0 10G07G08G10G16G18G20G21G26G27G31
  25012452.994  
  23386319.744  
  23096693.506  
  20355217.346  
  22745392.190  
  24499057.878  
  22879710.488  
  20611709.204  
  21013667.520  
  24639586.236  
 16 07 18 14 08 26.0000000  0 10G07G08G10G16G18G20G21G26G27G31
  25011941.674  
  23385857.964  
  23096161.846  
  20355082.886  
  22745256.350  
  24499443.018  
  22880169.088  
  20611931.224  
  21013435.660  
  24640250.596  
 16 07 18 14 08 27.0000000  0 10G07G08G10G16G18G20G21G26G27G31
  25011429.974  
  23385396.284  
  23095630.206  
  20354948.606  
  22745120.030  
  24499828.618  
  22880627.948  
  20612153.824  
  21013203.800  
  24640913.676  
 16 07 18 14 08 28.0000000  0 10G07G08G10G16G18G20G21G26G27G31
  25010917.734  
  23384934.384  
  23095098.286  
  20354814.326  
  22744983.950  
  24500215.038  
  22881087.108  
  20612375.864  
  21012972.160  
  24641577.116  
 16 07 18 14 08 29.0000000  0 10G07G08G10G16G18G20G21G26G27G31
  25010405.894  
  23384472.604  
  23094567.026  
  20354680.046  
  22744848.010  
  24500600.358  
  22881545.968  
  20612598.364  
  21012740.400  
  24642240.936  
 16 07 18 14 08 30.0000000  0 10G07G08G10G16G18G20G21G26G27G31
  25009894.674  
  23384010.984  
  23094034.746  
  20354545.806  
  22744711.750  
  24500986.238  
  22882005.468  
  20612820.964  
  21012508.520  
  24642904.796  
 16 07 18 14 08 31.0000000  0 10G07G08G10G16G18G20G21G26G27G31
  25009383.014  
  23383549.506  
  23093503.586  
  20354411.846  
  22744575.890  
  24501371.638  
  22882464.088  
  20613043.444  
  21012277.000  
  24643568.616  
 16 07 18 14 08 32.0000000  0 10G07G08G10G16G18G20G21G26G27G31
  25008872.134  
  23383087.566  
  23092971.826  
  20354277.786  
  22744440.190  
  24501758.558  
  22882923.568  
  20613266.384  
  21012045.160  
  24644231.996  
 16 07 18 14 08 33.0000000  0 10G07G08G10G16G18G20G21G26G27G31
  25008361.374  
  23382626.246  
  23092441.126  
  20354143.806  
  22744304.610  
  24502145.078  
  22883382.988  
  20613488.864  
  21011813.500  
  24644895.596  
 16 07 18 14 08 34.0000000  0 10G07G08G10G16G18G20G21G26G27G31
  25007849.854  
  23382164.646  
  23091909.526  
  20354010.106  
  22744169.530  
  24502530.578  
  22883841.928  
  20613712.044  
  21011581.860  
  24645559.456  
 16 07 18 14 08 35.0000000  0 10G07G08G10G16G18G20G21G26G27G31
  25007338.154  
  23381702.566  
  23091377.966  
  20353876.466  
  22744034.390  
  24502916.938  
  22884301.828  
  20613935.004  
  21011350.320  
  24646223.656  
 16 07 18 14 08 36.0000000  0 10G07G08G10G16G18G20G21G26G27G31
  25006826.694  
  23381241.326  
  23090846.706  
  20353743.086  
  22743898.950  
  24503302.758  
  22884760.748  
  20614157.964  
  21011118.900  
  24646887.636  
 16 07 18 14 08 37.0000000  0 10G07G08G10G16G18G20G21G26G27G31
  25006315.534  
  23380780.086  
  23090315.546  
  20353609.686  
  22743763.650  
  24503689.558  
  22885220.448  
  20614380.924  
  21010887.560  
  24647550.936  
 16 07 18 14 08 38.0000000  0 10G07G08G10G16G18G20G21G26G27G31
  25005804.894  
  23380318.686  
  23089784.266  
  20353476.466  
  22743628.430  
  24504076.118  
  22885680.068  
  20614604.204  
  21010656.180  
  24648214.916  
 16 07 18 14 08 39.0000000  0 10G07G08G10G16G18G20G21G26G27G31
  25005293.694  
  23379857.466  
  23089253.166  
  20353343.306  
  22743493.630  
  24504463.398  
  22886139.248  
  20614827.824  
  21010424.660  
  24648878.236  
 16 07 18 14 08 40.0000000  0 10G07G08G10G16G18G20G21G26G27G31
  25004783.274  
  23379395.706  
  23088721.906  
  20353210.086  
  22743358.630  
  24504851.238  
  22886598.868  
  20615051.284  
  21010193.160  
  24649542.456  
 16 07 18 14 08 41.0000000  0 10G07G08G10G16G18G20G21G26G27G31
  25004272.254  
  23378933.946  
  23088191.146  
  20353076.886  
  22743223.870  
  24505237.378  
  22887058.368  
  20615274.784  
  21009962.020  
  24650206.116  
 16 07 18 14 08 42.0000000  0 10G07G08G10G16G18G20G21G26G27G31
  25003761.974  
  23378472.946  
  23087659.806  
  20352943.846  
  22743088.990  
  24505624.678  
  22887517.528  
  20615498.884  
  21009730.680  
  24650870.536  
 16 07 18 14 08 43.0000000  0 10G07G08G10G16G18G20G21G26G27G31
  25003251.754  
  23378011.146  
  23087128.986  
  20352811.146  
  22742954.670  
  24506012.158  
  22887977.108  
  20615722.464  
  21009499.580  
  24651534.036  
 16 07 18 14 08 44.0000000  0 10G07G08G10G16G18G20G21G26G27G31
  25002741.534  
  23377550.426  
  23086597.846  
  20352678.306  
  22742820.170  
  24506398.798  
  22888436.928  
  20615946.324  
  21009268.360  
  24652197.376  
 16 07 18 14 08 45.0000000  0 10G07G08G10G16G18G20G21G26G27G31
  25002230.774  
  23377088.746  
  23086066.846  
  20352545.746  
  22742685.750  
  24506786.378  
  22888896.708  
  20616170.344  
  21009037.440  
  24652861.536  
 16 07 18 14 08 46.0000000  0 10G07G08G10G16G18G20G21G26G27G31
  25001720.574  
  23376627.686  
  23085535.906  
  20352412.826  
  22742551.370  
  24507173.198  
  22889356.688  
  20616394.504  
  21008806.600  
  24653525.056  
 16 07 18 14 08 47.0000000  0 10G07G08G10G16G18G20G21G26G27G31
  25001210.034  
  23376166.906  
  23085005.086  
  20352280.226  
  22742417.070  
  24507560.878  
  22889816.628  
  20616618.864  
  21008575.440  
  24654188.676  
 16 07 18 14 08 48.0000000  0 10G07G08G10G16G18G20G21G26G27G31
  25000699.794  
  23375705.766  
  23084474.526  
  20352147.466  
  22742283.070  
  24507948.198  
  22890276.388  
  20616843.084  
  21008344.320  
  24654852.496  
 16 07 18 14 08 49.0000000  0 10G07G08G10G16G18G20G21G26G27G31
  25000189.654  
  23375244.466  
  23083944.088  
  20352015.186  
  22742148.810  
  24508336.018  
  22890736.508  
  20617067.264  
  21008113.280  
  24655515.996  
 16 07 18 14 08 50.0000000  0 10G07G08G10G16G18G20G21G26G27G31
  24999680.034  
  23374783.226  
  23083413.568  
  20351882.946  
  22742014.810  
  24508724.178  
  22891196.508  
  20617291.724  
  21007882.400  
  24656179.356  
 16 07 18 14 08 51.0000000  0 10G07G08G10G16G18G20G21G26G27G31
  24999169.874  
  23374321.946  
  23082882.688  
  20351750.846  
  22741880.610  
  24509111.758  
  22891656.368  
  20617516.224  
  21007651.740  
  24656842.536  
 16 07 18 14 08 52.0000000  0 10G07G08G10G16G18G20G21G26G27G31
  24998659.194  
  23373860.646  
  23082352.508  
  20351618.746  
  22741746.970  
  24509500.058  
  22892116.348  
  20617741.124  
  21007421.020  
  24657505.576  
 16 07 18 14 08 53.0000000  0 10G07G08G10G16G18G20G21G26G27G31
  24998149.534  
  23373399.946  
  23081822.108  
  20351486.646  
  22741613.610  
  24509887.438  
  22892576.168  
  20617965.884  
  21007190.320  
  24658169.476  
 16 07 18 14 08 54.0000000  0 10G07G08G10G16G18G20G21G26G27G31
  24997640.494  
  23372938.866  
  23081291.828  
  20351354.726  
  22741479.730  
  24510275.498  
  22893036.208  
  20618190.944  
  21006959.740  
  24658832.936  
 16 07 18 14 08 55.0000000  0 10G07G08G10G16G18G20G21G26G27G31
  24997131.574  
  23372477.666  
  23080761.028  
  20351223.046  
  22741346.230  
  24510664.138  
  22893496.028  
  20618416.044  
  21006729.000  
  24659496.316  
 16 07 18 14 08 56.0000000  0 10G07G08G10G16G18G20G21G26G27G31
  24996621.034  
  23372016.646  
  23080230.688  
  20351091.386  
  22741212.670  
  24511052.698  
  22893956.468  
  20618641.244  
  21006498.640  
  24660160.496  
 16 07 18 14 08 57.0000000  0 10G07G08G10G16G18G20G21G26G27G31
  24996110.074  
  23371555.466  
  23079700.808  
  20350959.826  
  22741079.430  
  24511441.038  
  22894416.488  
  20618866.404  
  21006268.080  
  24660824.096  
 16 07 18 14 08 58.0000000  0 10G07G08G10G16G18G20G21G26G27G31
  24995600.514  
  23371094.006  
  23079170.368  
  20350828.246  
  22740945.850  
  24511828.918  
  22894876.888  
  20619091.744  
  21006037.800  
  24661487.576  
 16 07 18 14 08 59.0000000  0 10G07G08G10G16G18G20G21G26G27G31
  24995091.654  
  23370633.046  
  23078640.208  
  20350696.846  
  22740812.830  
  24512217.258  
  22895337.148  
  20619317.184  
  21005807.480  
  24662151.096  
