     2.11           OBSERVATION DATA    G                   RINEX VERSION / TYPE
Spider V4,3,0,4633  DGT                 2016 07 18 10:07    PGM / RUN BY / DATE 
IGP0                                                        MARKER NAME         
IGP0                                                        MARKER NUMBER       
Carla Martins       DIRECAO-GERAL DO TERRITORIO             OBSERVER / AGENCY   
40101683            TPS NETG3                               REC # / TYPE / VERS 
07340159            LEIAX1202GG     NONE                    ANT # / TYPE        
  4919032.1862  -793055.3627  3968746.4404                  APPROX POSITION XYZ 
        0.0000        0.0000        0.0000                  ANTENNA: DELTA H/E/N
     1     1                                                WAVELENGTH FACT L1/2
     1    C1                                                # / TYPES OF OBSERV 
     1.000                                                  INTERVAL            
  2016    07    18    10    07    0.0000000     GPS         TIME OF FIRST OBS   
  2016    07    18    10    07   59.0000000     GPS         TIME OF LAST OBS    
    17                                                      LEAP SECONDS        
     9                                                      # OF SATELLITES     
   G 2    60                                                PRN / # OF OBS      
   G12    60                                                PRN / # OF OBS      
   G14    60                                                PRN / # OF OBS      
   G21    60                                                PRN / # OF OBS      
   G25    60                                                PRN / # OF OBS      
   G26    60                                                PRN / # OF OBS      
   G29    60                                                PRN / # OF OBS      
   G31    60                                                PRN / # OF OBS      
   G32    60                                                PRN / # OF OBS      
THIS RINEX FILE IS CREATED FROM RTCM V3.0 DATA              COMMENT             
                                                            END OF HEADER       
 16 07 18 10 07  0.0000000  0  9G02G12G14G21G25G26G29G31G32
  24272383.940  
  23275177.346  
  21746606.116  
  24470690.718  
  20993811.820  
  24505596.138  
  20046602.748  
  21704943.876  
  22288133.872  
 16 07 18 10 07  1.0000000  0  9G02G12G14G21G25G26G29G31G32
  24272614.500  
  23275677.226  
  21746816.036  
  24470123.098  
  20994060.920  
  24505088.758  
  20046630.948  
  21704502.976  
  22288597.372  
 16 07 18 10 07  2.0000000  0  9G02G12G14G21G25G26G29G31G32
  24272845.220  
  23276177.006  
  21747026.096  
  24469554.958  
  20994310.080  
  24504581.378  
  20046659.488  
  21704062.116  
  22289061.132  
 16 07 18 10 07  3.0000000  0  9G02G12G14G21G25G26G29G31G32
  24273076.400  
  23276676.386  
  21747235.976  
  24468987.278  
  20994559.220  
  24504073.318  
  20046688.248  
  21703621.296  
  22289524.952  
 16 07 18 10 07  4.0000000  0  9G02G12G14G21G25G26G29G31G32
  24273307.360  
  23277176.466  
  21747446.456  
  24468417.718  
  20994808.120  
  24503565.298  
  20046716.668  
  21703180.716  
  22289988.872  
 16 07 18 10 07  5.0000000  0  9G02G12G14G21G25G26G29G31G32
  24273538.280  
  23277676.586  
  21747656.736  
  24467850.118  
  20995057.060  
  24503057.518  
  20046745.368  
  21702740.176  
  22290452.792  
 16 07 18 10 07  6.0000000  0  9G02G12G14G21G25G26G29G31G32
  24273768.960  
  23278175.966  
  21747867.016  
  24467282.518  
  20995306.100  
  24502550.278  
  20046774.328  
  21702299.376  
  22290916.892  
 16 07 18 10 07  7.0000000  0  9G02G12G14G21G25G26G29G31G32
  24274000.460  
  23278675.826  
  21748077.696  
  24466714.898  
  20995555.460  
  24502042.358  
  20046803.208  
  21701858.756  
  22291381.012  
 16 07 18 10 07  8.0000000  0  9G02G12G14G21G25G26G29G31G32
  24274231.860  
  23279175.346  
  21748288.436  
  24466146.998  
  20995804.780  
  24501535.218  
  20046832.488  
  21701418.296  
  22291845.412  
 16 07 18 10 07  9.0000000  0  9G02G12G14G21G25G26G29G31G32
  24274462.680  
  23279675.386  
  21748498.756  
  24465578.638  
  20996054.020  
  24501028.438  
  20046861.688  
  21700978.036  
  22292309.812  
 16 07 18 10 07 10.0000000  0  9G02G12G14G21G25G26G29G31G32
  24274694.260  
  23280174.826  
  21748709.536  
  24465010.358  
  20996303.580  
  24500520.818  
  20046891.048  
  21700537.616  
  22292774.032  
 16 07 18 10 07 11.0000000  0  9G02G12G14G21G25G26G29G31G32
  24274926.280  
  23280674.746  
  21748920.696  
  24464442.338  
  20996553.080  
  24500014.238  
  20046920.568  
  21700097.356  
  22293238.532  
 16 07 18 10 07 12.0000000  0  9G02G12G14G21G25G26G29G31G32
  24275157.840  
  23281174.626  
  21749131.696  
  24463874.258  
  20996802.660  
  24499507.678  
  20046950.388  
  21699657.136  
  22293703.312  
 16 07 18 10 07 13.0000000  0  9G02G12G14G21G25G26G29G31G32
  24275389.700  
  23281674.406  
  21749342.876  
  24463306.438  
  20997052.360  
  24499000.858  
  20046980.068  
  21699216.936  
  22294168.232  
 16 07 18 10 07 14.0000000  0  9G02G12G14G21G25G26G29G31G32
  24275621.180  
  23282174.226  
  21749554.476  
  24462738.118  
  20997302.040  
  24498493.778  
  20047009.888  
  21698776.796  
  22294633.272  
 16 07 18 10 07 15.0000000  0  9G02G12G14G21G25G26G29G31G32
  24275853.060  
  23282674.146  
  21749765.796  
  24462169.938  
  20997551.460  
  24497986.718  
  20047039.748  
  21698336.676  
  22295098.372  
 16 07 18 10 07 16.0000000  0  9G02G12G14G21G25G26G29G31G32
  24276085.860  
  23283173.746  
  21749977.316  
  24461602.238  
  20997800.980  
  24497479.978  
  20047069.688  
  21697896.576  
  22295563.332  
 16 07 18 10 07 17.0000000  0  9G02G12G14G21G25G26G29G31G32
  24276317.780  
  23283674.026  
  21750188.976  
  24461033.858  
  20998050.640  
  24496972.818  
  20047099.948  
  21697456.696  
  22296028.292  
 16 07 18 10 07 18.0000000  0  9G02G12G14G21G25G26G29G31G32
  24276549.900  
  23284173.806  
  21750400.776  
  24460465.218  
  20998300.320  
  24496464.798  
  20047130.448  
  21697016.876  
  22296493.172  
 16 07 18 10 07 19.0000000  0  9G02G12G14G21G25G26G29G31G32
  24276782.180  
  23284673.766  
  21750612.736  
  24459897.718  
  20998550.360  
  24495957.978  
  20047160.928  
  21696577.256  
  22296957.892  
 16 07 18 10 07 20.0000000  0  9G02G12G14G21G25G26G29G31G32
  24277014.000  
  23285173.626  
  21750824.796  
  24459329.718  
  20998799.980  
  24495450.338  
  20047191.488  
  21696137.376  
  22297423.172  
 16 07 18 10 07 21.0000000  0  9G02G12G14G21G25G26G29G31G32
  24277246.660  
  23285673.586  
  21751036.596  
  24458761.938  
  20999049.920  
  24494942.898  
  20047222.368  
  21695697.576  
  22297888.312  
 16 07 18 10 07 22.0000000  0  9G02G12G14G21G25G26G29G31G32
  24277479.200  
  23286173.626  
  21751248.896  
  24458193.538  
  20999300.080  
  24494435.398  
  20047253.268  
  21695257.896  
  22298353.712  
 16 07 18 10 07 23.0000000  0  9G02G12G14G21G25G26G29G31G32
  24277711.120  
  23286673.446  
  21751461.236  
  24457625.458  
  20999550.040  
  24493927.858  
  20047283.988  
  21694818.076  
  22298818.972  
 16 07 18 10 07 24.0000000  0  9G02G12G14G21G25G26G29G31G32
  24277944.440  
  23287172.766  
  21751673.576  
  24457057.478  
  20999800.140  
  24493421.318  
  20047314.928  
  21694378.596  
  22299284.872  
 16 07 18 10 07 25.0000000  0  9G02G12G14G21G25G26G29G31G32
  24278177.260  
  23287673.046  
  21751886.276  
  24456489.938  
  21000050.180  
  24492914.398  
  20047346.068  
  21693938.876  
  22299750.232  
 16 07 18 10 07 26.0000000  0  9G02G12G14G21G25G26G29G31G32
  24278410.220  
  23288172.786  
  21752098.556  
  24455922.118  
  21000300.260  
  24492407.758  
  20047377.288  
  21693499.436  
  22300215.792  
 16 07 18 10 07 27.0000000  0  9G02G12G14G21G25G26G29G31G32
  24278642.760  
  23288672.746  
  21752311.276  
  24455354.038  
  21000550.280  
  24491900.098  
  20047408.768  
  21693060.056  
  22300681.592  
 16 07 18 10 07 28.0000000  0  9G02G12G14G21G25G26G29G31G32
  24278876.220  
  23289173.326  
  21752524.056  
  24454785.238  
  21000800.480  
  24491393.278  
  20047440.508  
  21692620.596  
  22301147.352  
 16 07 18 10 07 29.0000000  0  9G02G12G14G21G25G26G29G31G32
  24279109.460  
  23289673.446  
  21752737.116  
  24454217.298  
  21001050.600  
  24490887.358  
  20047472.108  
  21692181.136  
  22301613.272  
 16 07 18 10 07 30.0000000  0  9G02G12G14G21G25G26G29G31G32
  24279342.380  
  23290173.526  
  21752950.316  
  24453648.738  
  21001300.980  
  24490380.738  
  20047503.988  
  21691741.896  
  22302078.992  
 16 07 18 10 07 31.0000000  0  9G02G12G14G21G25G26G29G31G32
  24279575.920  
  23290673.126  
  21753163.616  
  24453080.518  
  21001551.280  
  24489873.998  
  20047535.428  
  21691302.556  
  22302545.092  
 16 07 18 10 07 32.0000000  0  9G02G12G14G21G25G26G29G31G32
  24279809.580  
  23291173.486  
  21753376.916  
  24452512.258  
  21001801.560  
  24489367.078  
  20047567.608  
  21690863.416  
  22303011.252  
 16 07 18 10 07 33.0000000  0  9G02G12G14G21G25G26G29G31G32
  24280042.740  
  23291673.106  
  21753590.456  
  24451944.598  
  21002052.120  
  24488859.818  
  20047599.528  
  21690424.336  
  22303477.352  
 16 07 18 10 07 34.0000000  0  9G02G12G14G21G25G26G29G31G32
  24280276.460  
  23292173.306  
  21753804.196  
  24451376.778  
  21002302.420  
  24488352.258  
  20047631.988  
  21689985.196  
  22303943.492  
 16 07 18 10 07 35.0000000  0  9G02G12G14G21G25G26G29G31G32
  24280510.360  
  23292673.526  
  21754017.696  
  24450808.218  
  21002553.200  
  24487844.978  
  20047664.188  
  21689546.176  
  22304409.852  
 16 07 18 10 07 36.0000000  0  9G02G12G14G21G25G26G29G31G32
  24280744.380  
  23293173.266  
  21754231.316  
  24450240.558  
  21002803.680  
  24487337.538  
  20047696.528  
  21689107.456  
  22304876.412  
 16 07 18 10 07 37.0000000  0  9G02G12G14G21G25G26G29G31G32
  24280978.780  
  23293673.446  
  21754444.816  
  24449672.878  
  21003054.340  
  24486830.778  
  20047728.948  
  21688668.656  
  22305342.912  
 16 07 18 10 07 38.0000000  0  9G02G12G14G21G25G26G29G31G32
  24281213.060  
  23294173.326  
  21754659.016  
  24449104.398  
  21003305.420  
  24486324.098  
  20047761.508  
  21688229.556  
  22305809.572  
 16 07 18 10 07 39.0000000  0  9G02G12G14G21G25G26G29G31G32
  24281446.500  
  23294673.466  
  21754873.356  
  24448536.358  
  21003555.940  
  24485815.558  
  20047794.348  
  21687791.096  
  22306276.212  
 16 07 18 10 07 40.0000000  0  9G02G12G14G21G25G26G29G31G32
  24281681.340  
  23295173.626  
  21755087.616  
  24447968.538  
  21003806.620  
  24485308.298  
  20047827.208  
  21687352.536  
  22306742.892  
 16 07 18 10 07 41.0000000  0  9G02G12G14G21G25G26G29G31G32
  24281916.260  
  23295673.786  
  21755302.436  
  24447400.618  
  21004057.400  
  24484801.618  
  20047860.248  
  21686914.096  
  22307209.592  
 16 07 18 10 07 42.0000000  0  9G02G12G14G21G25G26G29G31G32
  24282151.020  
  23296173.706  
  21755516.836  
  24446832.138  
  21004308.360  
  24484295.438  
  20047893.468  
  21686475.456  
  22307676.712  
 16 07 18 10 07 43.0000000  0  9G02G12G14G21G25G26G29G31G32
  24282385.100  
  23296673.986  
  21755731.376  
  24446263.958  
  21004559.180  
  24483788.898  
  20047926.648  
  21686036.796  
  22308143.652  
 16 07 18 10 07 44.0000000  0  9G02G12G14G21G25G26G29G31G32
  24282620.000  
  23297174.106  
  21755946.076  
  24445695.738  
  21004810.100  
  24483283.238  
  20047960.208  
  21685598.496  
  22308610.812  
 16 07 18 10 07 45.0000000  0  9G02G12G14G21G25G26G29G31G32
  24282854.900  
  23297674.246  
  21756160.896  
  24445127.018  
  21005061.120  
  24482776.698  
  20047993.628  
  21685159.936  
  22309078.172  
 16 07 18 10 07 46.0000000  0  9G02G12G14G21G25G26G29G31G32
  24283089.460  
  23298174.686  
  21756375.476  
  24444558.778  
  21005312.000  
  24482270.878  
  20048027.248  
  21684721.516  
  22309545.472  
 16 07 18 10 07 47.0000000  0  9G02G12G14G21G25G26G29G31G32
  24283324.518  
  23298674.726  
  21756590.496  
  24443990.858  
  21005563.080  
  24481764.458  
  20048060.888  
  21684283.516  
  22310012.612  
 16 07 18 10 07 48.0000000  0  9G02G12G14G21G25G26G29G31G32
  24283559.558  
  23299175.086  
  21756805.536  
  24443423.018  
  21005814.260  
  24481257.338  
  20048094.628  
  21683845.056  
  22310479.792  
 16 07 18 10 07 49.0000000  0  9G02G12G14G21G25G26G29G31G32
  24283794.998  
  23299675.406  
  21757020.776  
  24442855.118  
  21006065.280  
  24480750.698  
  20048128.688  
  21683406.996  
  22310947.012  
 16 07 18 10 07 50.0000000  0  9G02G12G14G21G25G26G29G31G32
  24284030.218  
  23300175.366  
  21757236.256  
  24442286.858  
  21006316.520  
  24480244.058  
  20048162.628  
  21682968.896  
  22311414.632  
 16 07 18 10 07 51.0000000  0  9G02G12G14G21G25G26G29G31G32
  24284265.638  
  23300675.646  
  21757451.596  
  24441719.918  
  21006567.800  
  24479736.658  
  20048196.788  
  21682530.536  
  22311882.292  
 16 07 18 10 07 52.0000000  0  9G02G12G14G21G25G26G29G31G32
  24284500.938  
  23301175.846  
  21757667.476  
  24441151.158  
  21006819.120  
  24479229.718  
  20048231.168  
  21682092.616  
  22312349.792  
 16 07 18 10 07 53.0000000  0  9G02G12G14G21G25G26G29G31G32
  24284736.158  
  23301676.166  
  21757883.156  
  24440583.338  
  21007070.300  
  24478722.318  
  20048265.708  
  21681654.736  
  22312817.512  
 16 07 18 10 07 54.0000000  0  9G02G12G14G21G25G26G29G31G32
  24284972.238  
  23302176.586  
  21758098.976  
  24440015.558  
  21007321.760  
  24478215.238  
  20048300.288  
  21681216.916  
  22313285.092  
 16 07 18 10 07 55.0000000  0  9G02G12G14G21G25G26G29G31G32
  24285207.778  
  23302676.806  
  21758314.736  
  24439446.898  
  21007572.840  
  24477708.098  
  20048334.828  
  21680778.936  
  22313752.892  
 16 07 18 10 07 56.0000000  0  9G02G12G14G21G25G26G29G31G32
  24285443.658  
  23303176.726  
  21758530.396  
  24438878.198  
  21007823.920  
  24477201.198  
  20048369.548  
  21680341.036  
  22314220.852  
 16 07 18 10 07 57.0000000  0  9G02G12G14G21G25G26G29G31G32
  24285679.598  
  23303676.806  
  21758746.716  
  24438310.438  
  21008075.480  
  24476694.238  
  20048404.168  
  21679903.456  
  22314689.232  
 16 07 18 10 07 58.0000000  0  9G02G12G14G21G25G26G29G31G32
  24285915.498  
  23304177.406  
  21758963.136  
  24437742.198  
  21008326.880  
  24476188.118  
  20048439.068  
  21679465.796  
  22315157.272  
 16 07 18 10 07 59.0000000  0  9G02G12G14G21G25G26G29G31G32
  24286151.018  
  23304677.166  
  21759179.456  
  24437173.878  
  21008578.460  
  24475681.758  
  20048474.408  
  21679028.296  
  22315625.392  
